[{"name":"Red Barn Stores 3858-CUAJIMALPA","address":"JOSE MA. CASTORENA NO. 84  COL. SAN JOSE DE LOS CEDROS, DELEGACION CUAJIMALPA   MEXICO D.F. C.P. 05210","location":{"lat":19.3607183,"lng":-99.2924756}},{"name":"Red Barn Stores 2344-LOMAS","address":"BOULEVARD MANUEL AVILA CAMACHO NO. 491 COL. PERIODISTAS C.P.11220","location":{"lat":19.4497769,"lng":-99.2176528}},{"name":"Red Barn Stores 1770-PATIO SANTA FE","address":"AV. PROLONGACIÓN PASEO DE LA REFORMA NO. 400, ENTRE LAS CALLES: AVENIDA VASCO DE QUIROGA  Y DE AVENIDA PASEO DE LA REFORMA, COL. SANTA FE,  DELEGACIÓN ÁLVARO OBREGÓN CP  01210","location":{"lat":19.3771196,"lng":-99.25447969999999}},{"name":"Red Barn Stores 3862-AZCAPOTZALCO","address":"AV. NEXTENGO NO. 78 COL. SANTA CRUZ ACAYUCAN , MEXICO D.F. C.P. 02770","location":{"lat":19.4722391,"lng":-99.1917653}},{"name":"Red Barn Stores 2464-MIRAMONTES ","address":"AV. ESCUELA NAVAL MILITAR # 753 ESQ. AV. CANAL DE MIRAMONTES DELEG. COYOACÁN C.P. 04890","location":{"lat":19.3180345,"lng":-99.1255724}},{"name":"Red Barn Stores 2670-TLALPAN","address":"CALZADA TLALPAN NO. 1037  COL. AMERICAS UNIDAS C.P. 03500 DELEG. BENITO JUÁREZ","location":{"lat":19.3802274,"lng":-99.14116750000001}},{"name":"Red Barn Stores 3857-VILLA COAPA","address":"AV. CANAL DE MIRAMONTES NO. 3520 COL. SAN BARTOLO COAPA  C.P. 14390, MEXICO, D.F.","location":{"lat":19.2940622,"lng":-99.12443429999999}},{"name":"Red Barn Stores 2345-TEPEYAC","address":"CALZ. DE GUADALUPE NO. 431 COL. GUADALUPE TEPEYAC C.P.07840 DELEG. GUSTAVO A. MADERO","location":{"lat":19.472103,"lng":-99.120707}},{"name":"Red Barn Stores 3794-ACUEDUCTO DE GUADALUPE","address":"AV. LUIS ESPINOZA NO.  160 COL. SANTIAGO ATEPETLAC, DELEGACION GUSTAVO A. MADERO MEXICO D.F. C.P. 07200","location":{"lat":19.531428,"lng":-99.15573189999999}},{"name":"Red Barn Stores 3846-BUENAVISTA","address":"INSURGENTES NORTE NO. 131, COL GUERRERO C.P. 06300   MEXICO, D.F.","location":{"lat":19.4434817,"lng":-99.15333319999999}},{"name":"Red Barn Stores 3851-AEROPUERTO","address":"CALZADA IGNACIO ZARAGOZA NO. 58   COL. FEDERAL  C.P. 15700, MEXICO D.F.","location":{"lat":19.419527,"lng":-99.09381359999999}},{"name":"Red Barn Stores 3872-BALBUENA","address":"FRAY SERVANDO TERESA DE MIER NO. 881 COL.  JARDIN BALBUENA C.P. 15900, MEXICO D.F.","location":{"lat":19.4175648,"lng":-99.1057681}},{"name":"Red Barn Stores 3877-TORRES  LINDAVISTA","address":"MIGUEL OTHON DE MENDIZABAL OTE. 343, COL. NUEVA INDUSTRIAL VALLEJO,  C.P. 07700 MÉXICO, D.F","location":{"lat":19.5061578,"lng":-99.1445346}},{"name":"Red Barn Stores 4547-EDUARDO MOLINA","address":"CALZADA SAN JUAN DE ARAGÓN NO. 516 COLONIA D.M. NACIONAL DELEGARCIÓN GUSTAVO A. MADERO D.F. C.P. 7090","location":{"lat":19.4802945,"lng":-99.0960087}},{"name":"Red Barn Stores 2430-COPILCO","address":"AV. COPILCO NO. 164 COL. OXTOPULCO DEL. COYOACAN C.P. 04318","location":{"lat":19.3437634,"lng":-99.1835614}},{"name":"Red Barn Stores 2689-FELIX CUEVAS","address":"AV. SAN FRANCISCO NO. 1621 COL. DEL VALLE DEL. BENITO JUÁREZ C.P. 03100","location":{"lat":19.3720355,"lng":-99.17622139999999}},{"name":"Red Barn Stores 3845-UNIVERSIDAD","address":"AV. UNIVERSIDAD NO. 936-A COL. SANTA CRUZ ATOYAC   C.P. 03310, MEXICO D.F.","location":{"lat":19.3690867,"lng":-99.1645561}},{"name":"Red Barn Stores 3848-TAXQUEÑA","address":"MIGUEL A. DE QUEVEDO NO. 175 COL. CHIMALISTAC DELEGACION COYOACAN C.P. 01070, MEXICO D.F.","location":{"lat":19.345134,"lng":-99.18249639999999}},{"name":"Red Barn Stores 3852-PLATEROS","address":"BLVD. ADOLFO LOPEZ MATEOS NO. 1701 COL. LOMAS DE PLATEROS, DELEG. ALVARO OBREGON C.P. 01460 MEXICO D.F.","location":{"lat":19.3697963,"lng":-99.19246150000001}},{"name":"Red Barn Stores 3863-PERIFERICO SUR","address":"AV. CENTRO COMERCIAL NO. 190 COL. INSURGENTES CUICUILCO C.P. 04530 MEXICO, D.F.","location":{"lat":19.3062749,"lng":-99.1872774}},{"name":"Red Barn Stores 3876-LAS AGUILAS","address":"LAS AGUILAS NO. 820 COL. LAS AGUILAS C.P. 01710  ALVARO OBREGON MEXICO D.F.","location":{"lat":19.3527985,"lng":-99.215581}},{"name":"Red Barn Stores 1580-EL ROSARIO","address":"AV. EL ROSARIO NO. 1025 ENTRE LAS CALLES AQUILES SERDÁN Y AV. DEL PARQUE, COL. TIERRA NUEVA, C.P. 02430, DELEG. AZCAPOTZALCO, D.F.","location":{"lat":19.502162,"lng":-99.20360199999999}},{"name":"Red Barn Stores 2033-PLAZA ORIENTE","address":"AV. CANAL DE TEZONTLE NO. 1520 COL. DR. ALFONSO ORTIZ TIRADO DELEG. IZTAPALAPA D.F. C.P.09020","location":{"lat":19.3837638,"lng":-99.0831886}},{"name":"Red Barn Stores 1460-CUEMANCO","address":"CAÑAVERALES #222 COL.GRANJAS COAPA DELEGACION TLALPAN C.P.14330","location":{"lat":19.2954816,"lng":-99.10909579999999}},{"name":"Red Barn Stores 2382-INTERLOMAS","address":"BLVD. MAGNOCENTRO NO. 35, LOTE 1, MANZANA II, COL  BOSQUES DE LAS PALMAS, HUIXQUILUCAN, EDO. DE MEXICO, C.P. 52787","location":{"lat":19.403484,"lng":-99.27184840000001}},{"name":"Red Barn Stores 2343-TOLUCA","address":"PASEO TOLLOCAN NO. 600 COL. SECTOR PROGRESO, C.P.50150 TOLUCA EDO. DE MÉXICO","location":{"lat":19.2809877,"lng":-99.63941129999999}},{"name":"Red Barn Stores 3263-PILARES","address":"AV. BAJA VELOCIDAD NO. 1201 ORIENTE, ENTRE LAS CALLES PRIVADA CERRADA BERNARDO VARA Y TOLLOCAN II, COL. SAN JERÓNIMO CHICAHUALCO, CP 52170, METEPEC, MEX. (OFICIAL) ","location":{"lat":19.2857993,"lng":-99.5911919}},{"name":"Red Barn Stores 3790-METEPEC","address":"LEONA VICARIO NO. 502, COL LA PURISIMA, C.P. 52840, METEPEC, EDO DE MÉXICO","location":{"lat":19.2592827,"lng":-99.62314839999999}},{"name":"Red Barn Stores 5702-SANTIN ","address":"VIALIDAD TOLUCA-NAUCALPAN NO. 1101, SAN MATEO OTZACATIPAN,TOLUCA EDO. MEX. CP. 50200","location":{"lat":19.317176,"lng":-99.63130559999999}},{"name":"Red Barn Stores 5791-ZINACANTEPEC","address":"BOULEVARD ADOLFO LÓPEZ MATEOS NO. 117 COL. OJUELOS ZINACANTEPEC C.P. 51350","location":{"lat":19.288989,"lng":-99.69975900000001}},{"name":"Red Barn Stores 5825-ALFREDO DEL MAZO","address":"BOULEVARD ALFREDO DEL MAZO NO. 503 COL. JARDINES DE TLACOPA TOLUCA C.P. 50071","location":{"lat":19.274658,"lng":-99.64003}},{"name":"Red Barn Stores 1044-SAN MARCOS IZCALLI","address":"AV. CHALMA NO. 281 COL. JARDINES DE LA HACIENDA, CUAUTITLAN IZCALLI, EDO. DE MEX. C.P. 54720","location":{"lat":19.671232,"lng":-99.2048729}},{"name":"Red Barn Stores 1423-SANTA ELENA","address":"CARRETERA CUAUTITLAN-TULTEPEC NO. 2 ENTRE LAS CALLES SANTA LUCIA Y CAMINO VIEJO EL QUEMADO, COL. TERREMOTO C.P. 54850, CUAUTITLAN EDO. DE MEX.","location":{"lat":19.677422,"lng":-99.1482705}},{"name":"La Tienda Especiál 1001-San Buenaventura","address":"Paseo San Buenaventura No. 15, Esq. Paseo de Las Lomas, San Buenaventura, Municipio de Ixtapaluca, Estado de México, C.P. 56536","location":{"lat":19.3083157,"lng":-98.85920109999999}},{"name":"Red Barn Stores 2643-NICOLAS ROMERO","address":"BLVD. ARTURO MONTIEL ROJAS KM 10+700 ENTRE LAS CALLES AV. DE LAS FLORES Y CALLE 6 DE ENERO, COL. AMPLIACION VISTA HERMOSA, C.P. 54414 NICOLAS ROMERO, EDO. DE MEX.","location":{"lat":19.5173026,"lng":-99.2473495}},{"name":"Red Barn Stores 4018-SANTA MARÍA COACALCO","address":"VÍA JOSÉ LÓPEZ PORTILLO NO. 2 COL. SAN FRANCISCO COACALCO, C.P. 55712 COACALCO DE BERRIOZABAL, EDO. DE MEX.","location":{"lat":19.636588,"lng":-99.0974949}},{"name":"La Tienda Especiál 1002-Teotihuacán","address":"Avenida Cruz de la Misión #8 San JuanTeotihuacán, Edo de Méx C.P. 55800","location":{"lat":19.6825564,"lng":-98.8689605}},{"name":"Red Barn Stores 2041-TOLTECAS","address":"AV. HIDALGO S/N  COL. INDUSTRIAL TLAXCOLPAN CP 54030 , TLALNEPANTLA DE BAZ, EDO. DE MEX.","location":{"lat":19.5484062,"lng":-99.1941162}},{"name":"Red Barn Stores 1032-LOMAS VERDES","address":"SUPER CARRETERA LOMAS VERDES NO. 1200 VI SECCIÓN LOMAS VERDES; NAUCALPAN, ED. MEXICO C.P. 53120","location":{"lat":19.5160237,"lng":-99.2678327}},{"name":"Red Barn Stores 1584-ESPACIO ESMERALDA","address":"AV. DR. JORGE JIMENEZ CANTU SN, ENTRE LAS CALLES ESTADIA Y RESIDENCIA CHILUCA, COL. LA ESTADIA C.P. 52936 ATIZAPAN EDO. DE MEX.","location":{"lat":19.5530511,"lng":-99.2908171}},{"name":"Red Barn Stores 3847-SATELITE","address":"CIRCUITO 19 METALURGISTAS NO. 2 CD. SATELITE  C.P. 53100  NAUCALPAN DE JUAREZ, EDO. DE MEX.","location":{"lat":19.5154998,"lng":-99.2311082}},{"name":"Red Barn Stores 3850-ECHEGARAY","address":"EMILIANO ZAPATA NO 7  COL. SANTA MARÍA NATIVITAS C.P. 05320 EDO. DE MEX.","location":{"lat":19.4847131,"lng":-99.2328562}},{"name":"Red Barn Stores 3854-PIRULES","address":"BLVD. MANUEL AVILA CAMACHO NO. 2550  FRACC. LOS PIRULES  C.P. 54050  TLALNEPANTLA EDO. DE MEX.","location":{"lat":19.5429767,"lng":-99.2137219}},{"name":"Red Barn Stores 1169-MULTIPLAZA ARBOLEDAS","address":"AUTOPISTA  MEXICO-QUERETARO NO. 3985 COL. CENTRO INDUSTRIAL TLALNEPANTLA CP 54030 MPO. TLANEPANTLA DE BAZ, ESTADO DE MEXICO.","location":{"lat":19.5470374,"lng":-99.20928529999999}},{"name":"Red Barn Stores 5855-LAS ALAMEDAS","address":"PASEO DE LAS PALOMAS NO. 25 FRACC. LAS ALAMEDAS MUNICIPIO DE ATIZAPÁN DE ZARAGOZA, EDO. DE MÉX. C.P. 52970","location":{"lat":19.5546341,"lng":-99.24408869999999}},{"name":"Red Barn Stores 1202-HORIZONTE","address":"AV. INGENIEROS NO. 370 MANZANA 1855 LOTE 02 ENTRE LAS CALLES DE HERMENEGILDO GALEANA Y PILAR DEL PROGRESO, COL. EL AGOSTADERO, C.P. 56615, VALLE DE CHALCO SOLIDARIDAD, ESTADO DE MÉXICO ","location":{"lat":19.2998138,"lng":-98.9523789}},{"name":"Red Barn Stores 1489-HIPERPLAZA TEXCOCO","address":"HIDALGO NO. 300, ENTRE LAS CALLES CAMINO ALMOLINO DE LAS FLORES Y LIBERTAD, COL. STA. CRUZ DE ARRIBA C.P. 56120, TEXCOCO EDO. DE MEX. ","location":{"lat":19.5148682,"lng":-98.8681268}},{"name":"La Tienda Especiál 1008-Héroes Tecamac","address":"José Ma. Pino Suarez No. 52  Los Heroes Tecamac , Tecamac Edo de Mex  CP. 55760","location":{"lat":19.6201956,"lng":-99.0229876}},{"name":"Red Barn Stores 2079-CD. JARDIN","address":"AV. BORDO DE XOCHIACA NO. 3 LT -A2  COL. BENITO JUÁREZ  C.P. 57000  MUNICIPIO NEZAHUALCOYOTL, EDO. DE MÉXICO.","location":{"lat":18.8032957,"lng":-99.6634442}},{"name":"Red Barn Stores 3005-PLAZA ARAGON","address":"AV. CENTRAL NO 120, LOCAL 62 AL 68 Y 118, COL. RINCONADA DE ARAGON, ECATEPEC ESTADO DE ME XICO, C.P. 55120","location":{"lat":19.5314737,"lng":-99.0251353}},{"name":"Red Barn Stores 4109-PUERTA TEXCOCO","address":"CARRETERA FEDERAL MEXICO TEXCOCO KM 30.5   COL. SANTIAGO CUAUTLALPAN     TEXCOCO ESTADO DE MEXICO   C.P.56259","location":{"lat":19.4310651,"lng":-98.90853800000001}},{"name":"Red Barn Stores 4157-PERIFÉRICO CUAUTITLAN","address":"AUT. MÉXICO-QUERÉTARO KM.  36.5 LTE. 1 COL. PARQUE INDUSTRIAL CUAMATLA, C.P. 54730, CUAUTITLAN  IZCALLI, ESTADO DE MÉXICO","location":{"lat":19.6472224,"lng":-99.1944369}},{"name":"Red Barn Stores 1462-LERMA TOLUCA","address":"RIO LERMA NO. 5 ENTRE LAS CALLES DE MORELOS Y EL CALVARIO, COL. LA MERCED LERMA CP 52006","location":{"lat":19.2828124,"lng":-99.50342859999999}},{"name":"Red Barn Stores 1171-SAN JOSE TECAMC","address":"CARRETERA FEDERAL MÉXICO - PACHUCA  KM  36.5   COL. HUEYOTENCO   TECÁMAC, EDO. DE MEX  C.P.  55741","location":{"lat":19.6989413,"lng":-98.9797234}},{"name":"La Tienda Especiál 1109-Ayotla","address":"Carretera Federal Mexico-Puebla KM 27.5 N° 6, Entre Nicolas Bravo Y Francisco Javier Mina, C.P. 56560","location":{"lat":19.3108844,"lng":-98.92513799999999}},{"name":"SuperStore 3826-VIVEROS","address":"Calle 8 No. 1 Col. Viveros Del Valle C.P. 54080 Tlalnepantla, Estado De Mexico","location":{"lat":19.5315498,"lng":-99.2199516}},{"name":"SuperStore 3838-LOMAS VERDES","address":"Av. Lomas Verdes No. 545 Col. Lomas Verdes C.P. 53120 Naucalpan, Edo. De Mexico","location":{"lat":19.5068148,"lng":-99.2605344}},{"name":"SuperStore 3815-TECAMACHALCO","address":"Av. De Las Fuentes No. 174 Col. Lomas De Tecamachalco C.P. 53950 Naucalpan, Edo. de Mexico","location":{"lat":19.422216,"lng":-99.2374182}},{"name":"La Tienda Especiál 1110-Plaza Ecatepec","address":"Av. Vía Morelos Km21 No.172 Colonia Laureles C.P 55090, Ecatepec De Morelos, Edo.  De México ","location":{"lat":19.5836634,"lng":-99.03858249999999}},{"name":"KAYCHEE 98-Santa Fe","address":"PROLONGACION VASCO DE QUIROGA No. 3800, SANTA FE CUAJIMALPA, CUAJIMALPA DE MORELOS, DISTRITO FEDERAL, C.P..05348","location":{"lat":19.3612111,"lng":-99.27218049999999}},{"name":"KAYCHEE 106-Toreo","address":"BOULEVARD MANUEL AVILA CAMACHO NO.5, LOMAS DE SOTELO, NAUCALPAN DE JUAREZ, ESTADO DE MEXICO, C.P..53390","location":{"lat":19.4545872,"lng":-99.2187811}},{"name":"KAYCHEE 117-UN-San Esteban","address":"CALZ. SAN ESTEBAN NO. 46 ENTRE CANAL DEL TORNILLO Y PRIV. 10 DE MAYO, COL. SAN ESTEBAN HITZILACASCO, NAUCALPAN DE JUAREZ, ESTADO DE MEXICO. C.P. 53550","location":{"lat":19.4587324,"lng":-99.2338858}},{"name":"KAYCHEE 129-Un-Buen Tono","address":"BUEN TONO NO. 8 ENTRE DELICIAS Y ERNESTO PUGIBET, COL CENTRO, DELEG CUAUHTEMOC, MEXICO, DISTRITO FEDERAL. C.P. 06070","location":{"lat":19.4288361,"lng":-99.14328850000001}},{"name":"KAYCHEE 147-Cuajimalpa","address":"AV. JOSE MARIA CASTORENA NO. 316, CUAJIMALPA, CUAJIMALPA DE MORELOS, C.P..05000","location":{"lat":19.3602941,"lng":-99.2931073}},{"name":"KAYCHEE 231-UN-Interlomas","address":"BLVRD. INTERLOMAS NO. 5, LOCAL A-400 CENTRO COM INTERLOMAS, COL. SAN FERNANDO LA HERRADURA, HUIXQUILUCAN, ESTADO DE MEXICO. 52760 ","location":{"lat":19.4025129,"lng":-99.27012739999999}},{"name":"KAYCHEE 232-UN-Polanco","address":"AV. MIGUEL DE CERVANTES SAAVEDRA NO. 397, COL. IRRIGACION, DEL. MIGUEL HIDALGO, MEXICO, DISTRITO FEDERAL. C.P. 11579","location":{"lat":19.4417115,"lng":-99.2064194}},{"name":"KAYCHEE 652-UN-Samara Santa Fe","address":"AV. ANTONIO DOVALI JAIME NO. 70, COL. ZEDEC SANTA FE DELEG. áLVARO OBREGóN, MéXICO, D.F. C.P. 01260","location":{"lat":19.367502,"lng":-99.259091}},{"name":"KAYCHEE 655-Tecamachalco","address":"AV. DE LOS BOSQUES NO. 128, LOMAS DE TECAMACHALCO, HUIXQUILUCAN, C.P..52780","location":{"lat":19.4112004,"lng":-99.2509097}},{"name":"KAYCHEE 18-UN-Atizapan","address":"AV. SAN MATEO NO. 17, COL. ATIZAPAN CENTRO, MPIO. ATIZAPAN DE ZARAGOZA, ESTADO DE MEXICO. C.P. 52900","location":{"lat":19.5619354,"lng":-99.2438521}},{"name":"KAYCHEE 111-UN-Nicolas Romero","address":"CARRETERA ATIZAPAN- NICOLAS ROMERO NO. 4, COL. FRANCISCO SARABIA, MPIO. NICOLAS ROMERO,  ESTADO DE MEXICO, C.P. 54473","location":{"lat":19.5939722,"lng":-99.2797642}},{"name":"KAYCHEE 161-Bellavista","address":"BLVD. BELLAVISTA NO. 22, LOMAS DE BELLAVISTA, ATIZAPAN DE ZARAGOZA, ATIZAPAN,C.P..52994","location":{"lat":19.5213493,"lng":-99.25263179999999}},{"name":"KAYCHEE 167-Lago de Gpe","address":"BOSQUE DE BOLOGNIA S/N, BOSQUES DEL LAGO, CUAUTITLAN IZCALLI, C.P..54766","location":{"lat":19.6125668,"lng":-99.2416825}},{"name":"KAYCHEE 236-UN-Mundo E *Satelite","address":"BLVD. MANUEL AVILA CAMACHO NO. 1007, COL SAN LUCAS TEPETLACALCO, TLALNEPANTLA, ESTADO DE MEXICO. C.P. 54055","location":{"lat":19.5443317,"lng":-99.2124331}},{"name":"KAYCHEE 667-Viveros","address":"PARQUE CENTRAL No. 44, UNIDAD HABITACIONAL ADOLFO LOPEZ MATEOS,TLALNEPANTLA DE BAZ,  C.P..54070","location":{"lat":19.5230741,"lng":-99.2127841}},{"name":"KAYCHEE 100-UN-Iztapalapa","address":"CALLE SOTO Y GAMA NO. 21, DELEGACION IZTAPALAPA, MEXICO, DISTRITO FEDERAL. C.P 09240","location":{"lat":19.3590193,"lng":-99.0632333}},{"name":"KAYCHEE 121-Churubusco","address":"RIO CHURUBUSCO NO. 1072, NUEVA ROSITA, IZTAPALAPA, MEXICO, C.P. 09420","location":{"lat":19.3793024,"lng":-99.1022674}},{"name":"KAYCHEE 140-Tulyehualco","address":"AV. AQUILES CERDAN No. 360, QUIRINO MENDOZA, TULYEHUALCO, DISTRITO FEDERAL, C.P..16740","location":{"lat":19.2583453,"lng":-99.0231774}},{"name":"KAYCHEE 141-Copilco","address":"AV. PEDRO ENRIQUEZ UREÑA NO. 514, PUEBLO DE LOS REYES, COYOACAN,MEXICO,  C.P..04330","location":{"lat":19.3357325,"lng":-99.15855289999999}},{"name":"KAYCHEE 154-Xochimilco","address":"CARRETERA A SANTIAGO TEPELCATLALPAN NO. 400, LA CONCHA, XOCHIMILCO, C.P..16210","location":{"lat":19.2574219,"lng":-99.122312}},{"name":"KAYCHEE 158-Plaza América","address":"BENITO JUAREZ NO. 117, EX HACIENDA COAPA, COYOACAN, MEXICO, C.P..04980","location":{"lat":19.3131547,"lng":-99.1357807}},{"name":"KAYCHEE 165-Zaragoza","address":"CALZADA IGNACIO ZARAGOZA NO. 846, PANTITLAN, IZTACALCO, DF, C.P..08100","location":{"lat":19.4088707,"lng":-99.07532309999999}},{"name":"KAYCHEE 233-UN-Coapa","address":"CALZ. DEL HUESO NO. 670, COL. LOS ROBLES, DELEGACION COYOACAN, MEXICO, DISTRITO FEDERAL. C.P. 04940","location":{"lat":19.3042745,"lng":-99.1192361}},{"name":"KAYCHEE 234-UN-Ajusco","address":"CARRET. PICACHO-AJUSCO NO. 175, COL. HEROES DE PADIERNA, DELEGACION TLALPAN, MEXICO, DISTRITO FEDERAL. C.P. 14200","location":{"lat":19.2874057,"lng":-99.2183951}},{"name":"KAYCHEE 235-UN-Universidad","address":"AV. UNIVERSIDAD NO. 740, COL STA CRUZ ATOYAC, DELEGACION BENITO JUAREZ, MEXICO, DISTRITO FEDERAL. C.P. 03300","location":{"lat":19.3715437,"lng":-99.1589358}},{"name":"KAYCHEE 241-UN-Anfora","address":"ANFORA NO. 71, COL MADERO, DELEGACION VENUSTIANO CARRANZA, MEXICO, DISTRITO FEDERAL. C.P. 15320","location":{"lat":19.4354414,"lng":-99.1101339}},{"name":"KAYCHEE 670-Tezontle","address":"AV. CANAL TEZONTLE No. 1512, DR. ALFONSO ORTIZ TIRADO, IZTAPALAPA, MEXICO, DF, C.P..09020","location":{"lat":19.3839615,"lng":-99.0829}},{"name":"KAYCHEE 39-UN-Ecatepec *Palomas","address":"AV. CENTRAL ESQ. AV. JARDINES DE MORELOS S/N, SANTA CRUZ VENTA DE CARPIO, ECATEPEC DE MORELOS, ESTADO DE MEXICO. C.P. 55065","location":{"lat":19.6029569,"lng":-99.0145075}},{"name":"KAYCHEE 91-UN-Tecamac","address":"CARR. FED. MEX-PACHUCA KM. 35.3 S/N, FRACC. SIERRA HERMOSA, TECAMAC DE FELIPE VILLANUEVA CENTRO, ESTADO DE MEXICO. C.P 55740","location":{"lat":19.688992,"lng":-98.988946}},{"name":"KAYCHEE 107-UN-Ojo de Agua","address":"AV. SANTA CRUZ OJO DE AGUA NO. 88, COL. EX-EJIDO DE SAN FRANCISCO, MPIO. DE TECAMAC, ESTADO DE MEXICO. C.P. 55770","location":{"lat":19.6666445,"lng":-99.01716830000001}},{"name":"KAYCHEE 116-UN-Tepozan","address":"AV. TEPOZANES NO. 3 , COL. VALLE DE LOS REYES, MPIO. LOS REYES LA PAZ, MEXICO, ESTADO DE MEXICO. C.P. 56430","location":{"lat":19.4132853,"lng":-98.9698914}},{"name":"KAYCHEE 239-UN-Eduardo Molina","address":"AV. EDUARDO MOLINA NO. 1623, COL. EL COYOL, DELEGACION GUSTAVO A. MADERO, MEXICO, DISTRITO FEDERAL. C.P. 07440","location":{"lat":19.4857353,"lng":-99.0947034}},{"name":"KAYCHEE 240-UN-Neza 1 *Estadio","address":"4TA. AVENIDA NO. 257 LOTE 1 ENTRE LAZARO CARDENAS Y CTO REY NEZA, FRACC REY NEZA, MPIO DE NEZAHUALCOYOTL, ESTADO DE MEXICO. C.P. 57000","location":{"lat":19.3758698,"lng":-98.9829626}},{"name":"KAYCHEE 260-UN-Neza 2 *Impulsora","address":"AV. PLAZA CENTRAL NO. 1, COL. PLAZAS DE ARAGON, CIUDAD NEZAHUALCOYOTL, ESTADO DE MEXICO. C.P. 57139","location":{"lat":19.4836596,"lng":-99.0382121}},{"name":"La Tienda Especiál 1150-Huehuetoca","address":"Blvrd. Jorobas-Huehuetoca KM  4.5,  Barrio de Salitrillo CP. 54680","location":{"lat":19.8301166,"lng":-99.2274604}},{"name":"La Tienda Especiál 1177-Santiago Tianguistenco","address":"Av. Catarino Gonzalez Benítez 202| Santiago Tianguistenco, Estado de México C.P. 52600","location":{"lat":19.1769225,"lng":-99.4696367}},{"name":"La Tienda Especiál 1201-San Agustín Ecatepec","address":"Av. Adolfo López Mateos S/N Col. Miguel Hidalgo Ecatepec Edo. De México C.P. 55490","location":{"lat":19.52943,"lng":-99.0502319}},{"name":"La Tienda Especiál 1233-Tecalco","address":"Camino Sanpablo Tecalco S/N  Colonia Nueva Santa Maria (De San Pablo Tecalco)  C. P. 55747","location":{"lat":19.6849373,"lng":-98.9823723}},{"name":"La Tienda Especiál 1236-Atlacomulco","address":"Av. Mario Colín Sánchez N° 283, entre las calles Duraznos y Porfirio Alcántara Col Cuatro Milpas Deleg. Atlacomulco, Edo de Méx CP.50455","location":{"lat":17.9755716,"lng":-92.94885409999999}},{"name":"La Tienda Especiál 1428-San Mateo Atenco","address":"Av. Benito Juárez No. 504 Barrio de Santiago  CP. 52100 San Mateo Atenco Edo. de México","location":{"lat":25.4293583,"lng":-100.1530797}},{"name":"La Tienda Especiál 1496-El Molinito","address":"Av. De Las Granjas N° 41,  Col. Martires De Rio Blanco Municipio Naucalpan De Juarez Estado De Mexico  C.P 53780","location":{"lat":19.4445802,"lng":-99.25657539999999}},{"name":"La Tienda Especiál 1558-La Palma","address":"AV Venustiano Carranza #3 El Infiernillo Cuautitlán Edo de Mex CP. 54878","location":{"lat":19.6560311,"lng":-99.1716999}},{"name":"La Tienda Especiál 1634-Cuautzingo","address":"Avenida Morelos S/N San Gregorio Cuautzingo C.P. 56640, Chalco Edo de México","location":{"lat":19.25426,"lng":-98.859196}},{"name":"La Tienda Especiál 1829-Almoloya","address":"Av. Benito Juarez s/n  Colonia Centro, Almoloya de Juárez, Estado de México","location":{"lat":19.3607496,"lng":-99.75203470000001}},{"name":"La Tienda Especiál 1899-San Juan de la Labor","address":"Carretera Zumpango-Los Reyes, No. 5000, Col. Paseos de San juan, Zumpango, Estado de México, C.P. 55634","location":{"lat":19.7652863,"lng":-98.9833494}},{"name":"La Tienda Especiál 1930-El Oro","address":"Av. Centro Industrial N° 14 Y 16 Lotes 6 Y 7 , Entre Las Calles Av. De Las Alamedas Y Tuxpan, Estado De Mexico C.P 54954","location":{"lat":19.5439677,"lng":-99.17211600000002}},{"name":"La Tienda Especiál 2141-Xonacatlán","address":"Venustiano Carranza 133, Col. Centro Cp 52060, Xonacatlan Estado De Mexico.","location":{"lat":19.1933234,"lng":-99.4620092}},{"name":"La Tienda Especiál 2240-Santa Cruz","address":"Agripin García Estrada N° 403, entre las calles de Insurgentes y Pozo Blanco Col Santiago Tlaxomulco Centro Deleg. Toluca, Edo de Mex CP.50280","location":{"lat":19.2645245,"lng":-99.6573951}},{"name":"La Tienda Especiál 2525-Río Hondo","address":"Camino Arenero #650 Col. San Jose Rio Hondo Municipio de Naucalpan Estado De Mexico C.P 52810","location":{"lat":19.4303593,"lng":-99.2500989}},{"name":"La Tienda Especiál 2736-Chimalhuacan Peñon","address":"Av. Del Peñón s/n Col. Xochitenco Chimalhuacán Estado de México C.P. 56340","location":{"lat":19.4272268,"lng":-98.9640731}},{"name":"La Tienda Especiál 2737- Etzatlan","address":"Calle Etzatlan, N.25 Colonia Popular Rastro, Delegación Venustiano Carranza, CP. 15220","location":{"lat":19.4518541,"lng":-99.1199162}},{"name":"La Tienda Especiál 2871-Viento Nuevo","address":"Emiliano Zapara s/n , entre las calles Felipe Angeles y Av. Circuito Metropolitano Col. Viento Nuevo C.P.55066, Ecatepec de Morelos","location":{"lat":19.5990633,"lng":-99.04427969999999}},{"name":"La Tienda Especiál 2873-Dimas","address":"Camino a San Antonio La Concepcion No. 600 Fraccionamiento Rancho San Dimas Municipio san antonio La Isla Edo. De Mexico CP. 52280","location":{"lat":19.175214,"lng":-99.5681066}},{"name":"La Tienda Especiál 3020-Xalostoc","address":"Av. San Andres s/n. Colonia Hank Gonzalez C.P 55520 Ecatepec Edo. Mexico","location":{"lat":19.5592743,"lng":-99.08267670000001}},{"name":"La Tienda Especiál 3026-Gobernadora","address":"Av. Gobernadora 50-E Colonia Tulpetlac CP 55108 Ecatepec, Estado de Mexico","location":{"lat":19.5096009,"lng":-99.06404859999999}},{"name":"La Tienda Especiál 3043-Zinacantepec","address":"Av. 16 de Septiembre N° 349 entre Privada 16 de Septiembre y Niños Héroes Colonia Barrio de San Miguel Deleg. Zinacantepec, Estado de México CP.51354","location":{"lat":19.5453711,"lng":-99.13364059999999}},{"name":"La Tienda Especiál 3074-Villas De La Hacienda","address":"Carr. Lago de Gpe N° 388, Entre Las Calles De Luis Donaldo Colosio y Del Charro Villas De La Hacienda Atizapan De Zaragoza, Edo De Mex C.P. 52929","location":{"lat":19.6470936,"lng":-99.14455219999999}},{"name":"La Tienda Especiál 3098-Guadalupana","address":"Vialidad mexiquense #2  Los Heroes de Tecamac , Tecamac  Edo de Mex CP. 55763","location":{"lat":19.6312156,"lng":-99.0193426}},{"name":"La Tienda Especiál 3141-San Pablo Tultitlán","address":"Recursos Hidraulicos No 280 Col. San Pablo de las Salinas Tultitlan Estado de México C.P. 54930","location":{"lat":19.6788034,"lng":-99.10865009999999}},{"name":"La Tienda Especiál 3167-Santa Inés","address":"Carretera Himno Nacional S/N entre las calles de Emiliano Zapata y Carretera Zumpango, Col. Visitación, Melchor Ocampo, Estado de México, CP 54890","location":{"lat":19.7154655,"lng":-99.139612}},{"name":"La Tienda Especiál 3213-La Presa","address":"Hermilio Mena S/N esq. Calle Alpino, Col. Industrial La Presa, C.P. 54187, Tlalnepantla de Baz, Edo. De Mex.","location":{"lat":19.5377071,"lng":-99.1138428}},{"name":"La Tienda Especiál 3214-Chinampa","address":"Carretera Federal Mexico-Pachuca  Colonia Sierra Hermosa  Tecamac Estado de Mexico C. P.  55749","location":{"lat":19.714694,"lng":-98.97376899999999}},{"name":"La Tienda Especiál 3668-Real De Costitlan","address":"Real del  Arzobispado Mz. 62, Lt. 1, U. Hab. Real de Costitlan  C.P. 56370, Chicoloapan de Juárez Estado de México.","location":{"lat":19.4098826,"lng":-98.8967924}},{"name":"Red Barn Stores 1107-IXTAPALUCA ","address":"CARRETERA MEXICO- CUAUTLA LOCALES 3A Y 3B S/N COL. HACIENDA DE SANTA BARBARA, C.P. 56530, IXTAPALUCA MEXICO ENTRE LA ESPINITA E IXTAPALUCA","location":{"lat":19.299099,"lng":-98.88573459999999}},{"name":"La Tienda Especiál 3725-Toluca Pilares","address":"Av Gobernadores No 308 Barrio De Coaxustenco Metepec Edo De Mex CP 52176","location":{"lat":19.2680081,"lng":-99.5983784}},{"name":"La Tienda Especiál 3750-Autopista Querétaro","address":"Km 41.5 Autopista México Querétaro Col. Parque Industrial la Luz CP. 34830","location":{"lat":19.7010371,"lng":-99.204485}},{"name":"La Tienda Especiál 3751-Insurgentes Sur","address":" Guadalupe Victoria No. 1 Tlalpan Centro, D.F C.P. 14000","location":{"lat":19.2894523,"lng":-99.17272}},{"name":"La Tienda Especiál 3752-Vallejo","address":"Av. Industria #7 Fracc. Industrial San Pablo Xalpa Tlalnepantla, Estado De Mexico C.P. 54090","location":{"lat":19.519383,"lng":-99.1671923}},{"name":"SuperStore 3825-SAN  MATEO","address":"Antiguo Camino a San Mateo No. 20 Col. Anexo Coamilco C.P. 53240 Naucalpan, Edo. De Mexico","location":{"lat":19.4882564,"lng":-99.2462846}},{"name":"La Tienda Especiál 3755-Tacubaya","address":"Parque Lira #147 Col. Tacubaya Delegación  Miguel Hidalgo D.F. C.P 11870","location":{"lat":19.4049985,"lng":-99.1883296}},{"name":"La Tienda Especiál 3756-Tlalnepantla","address":"Rio Lerma #105 Fracc. La Romana Tlalnepantla, Estado De Mexico C.P. 54030","location":{"lat":19.5416223,"lng":-99.19038110000001}},{"name":"La Tienda Especiál 3757-San Juan de Aragón ","address":"Av. Jose Loreto Favela  N. 55 Col. San Juan De Aragon  Delg. Gustavo A.Madero  C.P 55090","location":{"lat":19.4652043,"lng":-99.08070409999999}},{"name":"La Tienda Especiál 3759-San Rafael","address":"Serapio Rendon #117 San Rafael Cuauhtemoc, D.F. C.P. 6470","location":{"lat":19.4342325,"lng":-99.16117990000001}},{"name":"La Tienda Especiál 3760-Lomas Estrella","address":"Av Tlahuac #4421, Iztapalapa Lomas Estrella 2a Sección, 09890 Ciudad de México, D.F.","location":{"lat":19.3207329,"lng":-99.09271799999999}},{"name":"La Tienda Especiál 3761-Tulyehualco","address":"Av. Tlahuac # 1577 Colonia.  Mirasoles  C.P 09880 Del . Iztapalapa","location":{"lat":19.3164602,"lng":-99.0735042}},{"name":"La Tienda Especiál 3762-Chimalhuacán","address":"Av. Chimalhuacan  428 y 430 Col. Benito Juarez  c.p 57000 Nezahualcoyotl  Edo. Mex","location":{"lat":19.4027458,"lng":-99.00775639999999}},{"name":"La Tienda Especiál 3763-Mariano Escobedo","address":"Mariano Escobedo #145 Anahuac Miguel Hidalgo, D.F. C.P. 11320","location":{"lat":19.4460893,"lng":-99.18276589999999}},{"name":"La Tienda Especiál 3764-Iztapalapa","address":"Av. Ermita Iztapalapa # 875 Col. Santa Isabel Industrial C.P 09820 Delegacion Iztapalapa","location":{"lat":19.35579,"lng":-99.1028424}},{"name":"La Tienda Especiál 3765-Ecatepec","address":"Av Lopez Portillo #410 Col Guadalupe Victoria Ecatepec Edo de Mex CP.55010","location":{"lat":19.6218539,"lng":-99.07239419999999}},{"name":"La Tienda Especiál 3766-La Viga ","address":"Calz. La Viga #136 Colonia Lorenzo Boturini Del.  Venustiano Carranza D.F. C.P 15820","location":{"lat":19.414168,"lng":-99.1276393}},{"name":"La Tienda Especiál 3768-Villa Coapa","address":"Av. Canal de Miramontes No. 7620, Col. Villa Coapa, Del. Tlalpan, D.F.  C.P. 14390","location":{"lat":19.2917613,"lng":-99.12493049999999}},{"name":"La Tienda Especiál 3770-Pantitlán","address":"Calz. I. Zaragoza #1172 Col. Agricola Pantitlan, Delegacion Iztacalco C.p. 08100","location":{"lat":19.4009559,"lng":-99.0611991}},{"name":"La Tienda Especiál 3771-Plaza Churubusco","address":"Av. Rio Churubusco # 1130 Col. Infonavit Iztacalco Del. Iztacalco D.F C.P 08900","location":{"lat":19.380854,"lng":-99.1024556}},{"name":"La Tienda Especiál 3772-Plaza Atizapan","address":"Carr. Atizapan Villa Nic. Romero Atizapan Atizapan, Estado De Mexico C.P. 52947","location":{"lat":19.5920394,"lng":-99.2780633}},{"name":"La Tienda Especiál 3775-La Aurora","address":"Carmelo Perez No. 774 Benito Juarez, Cd. Nezahualcoyotl, Estado de México C.P. 5700","location":{"lat":19.4068265,"lng":-98.99361840000002}},{"name":"La Tienda Especiál 3776-Sor Juana","address":"Indio Triste No 47 Metropolitana 2da seccion,Netzahualcoyotl.Edo de Mexico CP. 55740","location":{"lat":19.3924182,"lng":-99.0329033}},{"name":"La Tienda Especiál 3777-Valle de Aragón ","address":"Valle  Santiago  N° 102  Col. Valle  de  Aragon  CP. 57100  Nezahualcoyotl  Estado  de  Mexico","location":{"lat":19.4893311,"lng":-99.05439609999999}},{"name":"Red Barn Stores 5765-LAS AMERICAS ","address":"AV. CENTRAL ESQ. AV. 1° DE MAYO, MZ 04 LT. 01 COL. LAS AMERICAS, C.P. 55459 ECATEPEC DE MORELOS, ESTADO DE MEXICO","location":{"lat":16.7169042,"lng":-92.6274504}},{"name":"La Tienda Especiál 3778-Xochimilco","address":"Prolongación Division del Norte 5333, Colonia Potrero de San Bernardino, Delegación Xochimilco, C.P. 16030, México, D.F.","location":{"lat":19.2675148,"lng":-99.11727049999999}},{"name":"La Tienda Especiál 3782-Centenario","address":"Av. Centenario # 394 Col.  Merced Gomez, Del  Alvaro Obregon D.F. C.P 1600","location":{"lat":19.3659797,"lng":-99.2091643}},{"name":"La Tienda Especiál 3783-Santa Clara ","address":"Carr. Mex-Pachuca #3277 Km. 17.5, col. Tulpetlac, Ecatepec, Estado de México, CP 55400","location":{"lat":19.5930139,"lng":-99.0277251}},{"name":"La Tienda Especiál 3784-1° de Mayo","address":"Av. 1 Mayo Y Rio Hondo #200 Col. San Andres Atoto  Municipio Naucalpan Estado De Mexico C.P 53500","location":{"lat":19.4657384,"lng":-99.23418439999999}},{"name":"La Tienda Especiál 3786-Santa Fe","address":"Camino Real A Toluca # 644 Colonia Cuevitas delegación  Alvaro Obregon D.F.  C.P 1220","location":{"lat":19.3897814,"lng":-99.204269}},{"name":"La Tienda Especiál 3787-Cuautitlán","address":"Av. Paseo de la Constitución s/n L-1 Mz. C-34 B Col Centro Urbano, CP  54700 Edo de Mex.","location":{"lat":19.2915049,"lng":-99.65546289999999}},{"name":"La Tienda Especiál 3791-Fuentes del Valle","address":"Vía López Portillo #149 Fuentes del Valle Tultitlán Edo de Mex CP.54910","location":{"lat":19.6290873,"lng":-99.1394679}},{"name":"La Tienda Especiál 3795-Texcoco","address":"Calle Prolongación 16 De Septiembre S/N Colonia San Pablo Municipio De Texcoco De Mora Edo Mex. CP. 56110","location":{"lat":19.5197634,"lng":-98.8795784}},{"name":"La Tienda Especiál 3798-Santa Cecilia","address":"Calz. Sta Cecilia #17 Pueblo Sta Cecilia Tlalnepantla, Estado De Mexico C.P. 54130","location":{"lat":19.5535042,"lng":-99.1770426}},{"name":"La Tienda Especiál 3799-Ángeles Iztapalapa","address":"Av. Ermita Iztapalapa No.2001 Col. Los Angeles Del. Iztapalapa CP. 09830","location":{"lat":19.3477489,"lng":-99.0697636}},{"name":"La Tienda Especiál 3803-Observatorio","address":"Av. Observatorio #457 Col. Las Americas Del.  Alvaro Obregon D.F. C.P 1120","location":{"lat":19.3997863,"lng":-99.2095075}},{"name":"La Tienda Especiál 3805-Santa Lucía","address":"Av. Sta Lucia # 185 Col. Alfonso XIII Del.  Alvaro Obregon D.F. C.P 01460","location":{"lat":19.3718495,"lng":-99.21238699999999}},{"name":"La Tienda Especiál 3808-Bolivar","address":"Bolivar #190 Obrera Cuauhtemoc, D.F. C.P. 6800","location":{"lat":19.4219608,"lng":-99.1398899}},{"name":"La Tienda Especiál 3860-Zaragoza","address":"Calzada Ignacio Zaragoza No. 1527, Col. Tepalcates, Iztapalapa, D.F. , C.P. 09210","location":{"lat":19.3928878,"lng":-99.05108489999999}},{"name":"La Tienda Especiál 3871-Plaza Cuautitlán","address":"Autopista México Qro. Km. 37.10 Esq. Av. de los Fresnos Col. Arcos del Alba, Municipio Cuautitlán Izcalli CP. 54750","location":{"lat":19.6502794,"lng":-99.1987109}},{"name":"La Tienda Especiál 3874-Cantil","address":"Av. Aztecas no. 221 Col. Los Reyes Del. Coyoacan CP 04330","location":{"lat":19.3301128,"lng":-99.15418629999999}},{"name":"La Tienda Especiál 3883-Melchor Ocampo","address":"Carr. Melchor Ocampo No.1  Barrio Tlaltepan. C.P. 54800","location":{"lat":19.3820746,"lng":-99.1188493}},{"name":"La Tienda Especiál 3884-Chalco 2000","address":"Av. Vicente Guerrero N° 25 Colonia Ejidal Chalco Centro C.P 56030 Chalco Edo de México","location":{"lat":19.2640468,"lng":-98.89682889999999}},{"name":"La Tienda Especiál 3888-Vía Morelos","address":"Av. Vía Morelos S/N, Col. Alcahuacan Jajalpa CP 55090,  Ecatepec de Morelos Estado de México","location":{"lat":19.5999871,"lng":-99.03686400000001}},{"name":"La Tienda Especiál 3891-Los Reyes","address":"Km. 17.5 Carr. Lib. Mex-Puebla, Col. Emiliano Zapata, Los Reyes La Paz, Estado de México, C.P. 56490","location":{"lat":19.3543109,"lng":-98.97826979999999}},{"name":"La Tienda Especiál 3892-Av Central","address":"Av. Hank Gonzalez No. 104-106 entre Av. Independencia y Av. Constitucion de la Republica, Nezahualcoyotl  Edo. De Mexico C.P. 07469","location":{"lat":19.3864182,"lng":-98.97457829999999}},{"name":"La Tienda Especiál 3897-La Virgen","address":"Calzada de la Virgen No. 2990, Colonia UCTM Culhuacan CP.04480 México D.F.","location":{"lat":19.3221144,"lng":-99.1065333}},{"name":"Red Barn Stores 1724-LOS REYES ZUMPANGO","address":"CARRETERA ZUMPANGO LOS REYES S/N ENTRE LAS CALLES DE LOS PINOS Y PIRINEOS COL. BUENAVISTA CP 55635 ZUMPANGO, EDO. DE MEXICO","location":{"lat":19.7652863,"lng":-98.9833494}},{"name":"La Tienda Especiál 3910-Palomas","address":"Calle Palomas Mz 1 Lt 1 La Veleta Ecatepec Edo de Mex CP.55000","location":{"lat":19.6096869,"lng":-99.0175671}},{"name":"La Tienda Especiál 3916-Iztapalapa Norte","address":"Calz. Ermita Iztapalapa no. 3409 col. Santa Maria Aztahucan  CP. 09500","location":{"lat":19.3481892,"lng":-99.0187904}},{"name":"La Tienda Especiál 3924-Cofradías","address":"Av. Jorge Jiménez Cantú, lote 2, manzana s/n, Colonia Ex - Hacienda San Miguel  CP.54710","location":{"lat":19.6893606,"lng":-99.2126049}},{"name":"La Tienda Especiál 4017-Toluca Aztecas","address":"Heriberto Enríquez N° 1037 entre Paseo Real de San Javier y Nogales Colonia Azteca Deleg. Toluca, Estado de México CP.50180","location":{"lat":19.2637431,"lng":-99.6454684}},{"name":"La Tienda Especiál 4029-Av. Nacional","address":"Carretera Mexico-Pachuca s/n esquina privada av nacional  Santo Tomas chiconautla Ecatepec de Morelos Edo de Mex CP.55068","location":{"lat":19.6386437,"lng":-99.0029024}},{"name":"La Tienda Especiál 4128-Arca De Noé","address":"Av. Arca de Noe #150 Col. Acuitlapilco Chimalhuacan, Estado de México C.P. 56335","location":{"lat":19.4215911,"lng":-98.9307243}},{"name":"La Tienda Especiál 4198-El Tenayo","address":"Paseo De Los Sauces N° 5 Entre Av. Santa Cecilia Y Paseo De Las Ahuehuetes Valle Del Tenayo Tlalnepantla De Baz, Estado De Mexico C.P. 54147","location":{"lat":19.4930319,"lng":-99.1966212}},{"name":"La Tienda Especiál 4558-Tecamac","address":"Carretera federal Mexico-Pachuca # 65 Esmeralda Tecamac Edo de Mex CP. 55765","location":{"lat":19.6597645,"lng":-99.00505539999999}},{"name":"La Tienda Especiál 5730-Chicoloapan","address":" Carretera México - Texcoco K.m. 29.5 s/n Col. 2 de Marzo Sn Vicente Chicoloapan C.P. 56370 ","location":{"lat":19.4151071,"lng":-98.91853809999999}},{"name":"La Tienda Especiál 5733-Plaza Chimalhuacán","address":"Av. Nezahualcoyolt  No.172 Col Cabecera Municipal Chimalhuacan Estado de Mexico CP 56330","location":{"lat":19.4122578,"lng":-98.9335019}},{"name":"La Tienda Especiál 5768-Cd Labor","address":"Vía José López Portillo No. 12  Col. San Francisco Chilpan Tultitlan, Estado De Mexico C.P. 54940","location":{"lat":19.6195904,"lng":-99.1722391}},{"name":"SuperStore 1053-ACOXPA","address":"Calz. Acoxpa No. 438, Esq. Con Calzada De Guadalupe, Col. Ex hacienda Coapa, C.P. 14300, Del. Tlalpan, D.F.","location":{"lat":19.2990982,"lng":-99.1360887}},{"name":"SuperStore 3813-CHURUBUSCO","address":"Av. Cerro de Las Torres No. 229 Col. Campestre Churubusco Delegación Coyoacán Mexico, D.F.C.P.04200","location":{"lat":19.3448021,"lng":-99.1351858}},{"name":"SuperStore 3836-COPILCO","address":"Av. Copilco No. 75 Col. Copilco El Bajo Delegación Coyoacán Mexico, D.F. C.P. 04340","location":{"lat":19.3375338,"lng":-99.18601799999999}},{"name":"SuperStore 3831-COYOACAN","address":"Miguel A. De Quevedo 870 Col. Concepción  Delegación Coyoacán Mexico, D.F. C.P. 04000","location":{"lat":19.3445656,"lng":-99.1562098}},{"name":"SuperStore 3843-DIVISIÓN DEL NORTE","address":"División del Nte.  No. 3651 Col. Sn. Pablo Tepetlapa Delegación Coyoacán Mexico, D.F. C.P. 04600","location":{"lat":19.32077,"lng":-99.13921739999999}},{"name":"SuperStore 2766-FELIX CUEVAS","address":"Félix Cuevas #374 Col. Tlacoquemecatl C.P. 03200, Benito Juarez,  Distrito Federal ","location":{"lat":19.3729824,"lng":-99.1729062}},{"name":"SuperStore 3839-GIRASOLES","address":"Rancho Sn. Lorenzo No. 6 Col. Girasoles de Valle Delegación Coyoacán Mexico, D.F. C.P. 04920","location":{"lat":19.3107496,"lng":-99.1247935}},{"name":"SuperStore 3397-MAYORAZGO","address":"Mayorazgo No130 Col. Xoco Del. Benito Juarez , México  D.F. C.P. 03339 ","location":{"lat":19.3594113,"lng":-99.168053}},{"name":"SuperStore 3819-DEL VALLE","address":"Heriberto Frías No. 1107 Col. Del Valle Delegación Benito Juarez México, D.F. C.P. 03100","location":{"lat":19.3817635,"lng":-99.16271479999999}},{"name":"SuperStore 3223-DEL VALLE NORTE","address":"Boulevard Xola No. 407 Col. Del Valle Norte, Delegación Benito Juarez, México, D.F.  C.P.03103","location":{"lat":19.3942335,"lng":-99.1386794}},{"name":"SuperStore 1492-OLIPLAZA","address":"Av. Río Churubusco No. 583 esq. Av. La Viga, Col. Sector Popular, C.P. 09060, Deleg. Iztapalapa, D.F.","location":{"lat":19.368753,"lng":-99.122046}},{"name":"SuperStore 3199-PASEOS DE TAXQUEÑA","address":"Calz. Taxqueña No. 1752 Col. Paseos de Taxqueña, Delegación Coyoacán C.P. 04290, México, D.F.","location":{"lat":19.3386713,"lng":-99.1266763}},{"name":"SuperStore 3479-POPOCATEPETL","address":"Av. Popocatepetl No 546 esq. Av. Universidad, Col. Xoco, C.P. 03330, Deleg. Benito Juarez, D.F.","location":{"lat":19.3655954,"lng":-99.1673497}},{"name":"SuperStore 3842-RIO CHURUBUSCO","address":"Ajusco No. 126 Col. Portales C.P. 03300 Delegación Benito Juarez México, D.F.","location":{"lat":19.3581743,"lng":-99.1519395}},{"name":"SuperStore 2829-CALZADA DE LOS LEONES","address":"Calzada de Los Leones No. 242 Col. Los Alpes  Delg. Alvaro Obregón Mexico D.F. C.P. 01010","location":{"lat":19.3576199,"lng":-99.1978852}},{"name":"SuperStore 2830-J.DE LA MONTAÑA","address":"Blvd. Picacho Ajusco No. 8 entre las calles Paseos del Pedregal y Pico de Turquino, Col. Jardines en la Montaña, C.P. 14210, Tlalpan, D.F","location":{"lat":19.2683806,"lng":-99.21838989999999}},{"name":"SuperStore 3177-INS. LA JOYA","address":"Insurgentes Sur No. 4120 entre las calles de Cantera y Limantitla, Col. Tlalpan Centro, C.P. 14000, Deleg. Tlalpan, D.F.","location":{"lat":19.2822869,"lng":-99.173265}},{"name":"SuperStore 3816-PEDREGAL","address":"Av. Sn. Jerónimo No.273 Col. La Otra Banda  Delegación Alvaro Obregón Mexico, D.F. C.P. 01090","location":{"lat":19.3334659,"lng":-99.20097899999999}},{"name":"SuperStore 3818-REVOLUCIÓN","address":"Av. Revolución No. 1151 Col. Mixcoac Delegación Benito Juarez México, D.F. C.P. 03910","location":{"lat":19.3649804,"lng":-99.18953169999999}},{"name":"SuperStore 3827-PERIFERICO","address":"Calz. De Tlalpan  No.4467 Col. Toriello Guerra  Delegación Tlalpan Mexico,D.F. C.P. 14050","location":{"lat":19.2958936,"lng":-99.15529219999999}},{"name":"SuperStore 3833-JARDINES","address":"Av. De Las Fuentes  No. 490 Jardines Del Pedregal Delegación Alvaro Obregón Mexico, D.F. C.P. 01900","location":{"lat":19.3218261,"lng":-99.2090121}},{"name":"SuperStore 3837-LUIS CABRERA","address":"Av. Contreras No.386 Col. Sn. Jerónimo Lidice Delegación Magdalena Contreras Mexico, D.F. C.P. 10200","location":{"lat":19.3213,"lng":-99.2215598}},{"name":"SuperStore 3840-PATIO PEDREGAL","address":"Periférico Sur No 5270 Col. Sta. Úrsula Coyoacán Mexico, D.F. C.P. 04650","location":{"lat":19.3033114,"lng":-99.17271249999999}},{"name":"SuperStore 3896-FTES. PEDREGAL","address":"Calle Unión No. 3 Colonia Fuentes del Pedregal Delegación Tlalpan Mexico, D.F. C.P. 14220","location":{"lat":19.3048298,"lng":-99.2209307}},{"name":"SuperStore 3915-AV. TOLUCA","address":"Av. Toluca No. 511  Col. Olivar de Los Padres Delegación Alvaro Obregón Mexico, D.F. C.P. 01780","location":{"lat":19.3396042,"lng":-99.21882989999999}},{"name":"SuperStore 3817-GEORGIA","address":"Georgia No. 53 Col. Nápoles Delegación Benito Juarez México, D.F. C.P. 03810","location":{"lat":19.3898697,"lng":-99.1757311}},{"name":"SuperStore 3481-GRAND POLANCO","address":"Boulevard Miguel de Cervantes Saavedra no. 380, (376a)Col. Irrigación, Delegación Miguel Hidalgo C.P. 11500","location":{"lat":19.4400143,"lng":-99.20573329999999}},{"name":"SuperStore 3832-HOMERO","address":"Av. Homero No.310  Col. Chapultepec Morales Delegación Miguel Hidalgo Mexico, D.F. C.P. 11570","location":{"lat":19.4348919,"lng":-99.1858781}},{"name":"SuperStore 3811-HORACIO","address":"Horacio No. 603 Col. Chapultepec Morales Delegación Miguel Hidalgo Mexico, D.F. C.P. 11570","location":{"lat":19.4338351,"lng":-99.19013880000001}},{"name":"SuperStore 3834-INDIANA","address":"Maximino Avila Camacho No. 32 Col. Ciudad De Los Deportes Delegación Benito Juarez México, D.F. C.P. 03710","location":{"lat":19.3839103,"lng":-99.17714749999999}},{"name":"SuperStore 3828-LOS MORALES","address":"Horacio No. 1740 Col. Chapultepec Morales Delegación Miguel Hidalgo Mexico, D.F. C.P. 11510","location":{"lat":19.43505,"lng":-99.20956319999999}},{"name":"SuperStore 3820-MICHOACÁN","address":"Michoacán No. 38 Col. Hipódromo Condesa Delegación Cuauhtémoc Mexico, D.F. C.P. 06170","location":{"lat":19.4113083,"lng":-99.1711991}},{"name":"SuperStore 3809-PACHUCA","address":"Pachuca No.99 Col. Condesa Delegación Cuauhtémoc Mexico, D.F. C.P. 06140","location":{"lat":19.4152636,"lng":-99.17807309999999}},{"name":"SuperStore 3025-PARQUES POLANCO","address":"Lago Alberto No. 320, entre las calles Mariano Escobedo y Lago Mayor, Col. Granada, C.P. 11520, Deleg. Miguel Hidalgo, D.F.","location":{"lat":19.440408,"lng":-99.18424279999999}},{"name":"SuperStore 3812-NARVARTE","address":"Pedro Romero De Terreros No. 1461 Col. Narvarte Delegación Benito Juarez México, D.F. C.P. 03020","location":{"lat":19.39308,"lng":-99.15431489999999}},{"name":"SuperStore 3810-SENA","address":"Rio Balsas No. 23 Col. Cuauhtémoc Delegación Cuauhtémoc Mexico, D.F. C.P. 06500","location":{"lat":19.4336642,"lng":-99.16808820000001}},{"name":"SuperStore 3480-WTC DAKOTA","address":"Av. Dakota No. 95 entre las calles Arizona y altadena, col. Nápoles, C.P. 03810, Deleg. Benito Juárez, D.F. ","location":{"lat":19.3960562,"lng":-99.1743746}},{"name":"Red Barn Stores 4191-LAGO DE GUADALUPE ","address":"LAGO DE GPE S/N LOTE 2 LOCAL SA03 ENTRE LAS CALLES AUTOPISTA MEXIC-QUERETARO Y TEXCATILPOCA, COL. SAN PEDRO BARRIENTOS 54010 TLANEPANTLA DE BAZ EDO DE MEXICO","location":{"lat":19.5793885,"lng":-99.2110469}},{"name":"SuperStore 3835-LOMAS ANAHUAC","address":"Av. De Los Bosques No. 234 Col. Lomas De Tecamachalco Huixquilucan, Edo. De Mexico C.P. 52760","location":{"lat":19.4064,"lng":-99.2569}},{"name":"SuperStore 3629-ECHEGARAY","address":"Av. Gustavo Baz 3 244 Col. Echegaray Naucalpan Edo. De Mexico C.P. 02770","location":{"lat":19.4606118,"lng":-99.2515774}},{"name":"Red Barn Stores 3016-MACRO PLAZA HEROES TEC.","address":"BOSQUES DEL ESTADO DE MEXICO NO. 2 LOTE 1, ENTRE BOSQUES DE CHAPULTEPEC Y BOSQUES DE LOS CIPRESES, COL. LOS HEROES TECAMAC, C.P. 55764 TECAMAC EDO. DE MEXICO","location":{"lat":19.6181865,"lng":-99.0395355}},{"name":"SuperStore 3824-ORADORES","address":"Av. Fuentes de Satélite No. 1 Fraccionamiento Col. Jardines de Bellavista, Tlalnepantla de Baz, Edo. De Mexico C.P. 54080","location":{"lat":19.5190353,"lng":-99.2472458}},{"name":"La Tienda Especiál 5770-Zumpango","address":"Blvd.Melchor Ocampo No.120/Col.Barrio de Santiago. CP 55600","location":{"lat":19.3796903,"lng":-99.11922729999999}},{"name":"SuperStore 1408-VALLE DORADO","address":"Blvd. Manuel Avila Camacho No. 3130, Tlalnepantla, Estado de México C.P. 54020","location":{"lat":19.5476559,"lng":-99.21100679999999}},{"name":"La Tienda Especiál 5813-La Paz","address":"Av. Río Bravo No. 6, Col. El Salado, La Paz, Estado de México, C.P. 56410","location":{"lat":19.3700701,"lng":-98.9607201}},{"name":"SuperStore 3821-LINDAVISTA","address":"Montevideo No. 360 Col. Lindavista Delegación Gustavo A. Madero Mexico, D.F. C.P. 07300","location":{"lat":19.4916614,"lng":-99.1336944}},{"name":"SuperStore 3814-BARRILACO","address":"Sierra Ventana No.750 Col. Lomas de Chapultepec Delegación Miguel Hidalgo Mexico, D.F.C.P. 11000","location":{"lat":19.4157429,"lng":-99.22616339999999}},{"name":"SuperStore 3829-BOSQUES DE LAS LOMAS","address":"Bosques de Duraznos 187 Loc. 1 Col. Bosques de Las Lomas Delegación Miguel Hidalgo Mexico, D.F.C.P. 11700","location":{"lat":19.4028795,"lng":-99.2427809}},{"name":"SuperStore 3841-LILAS","address":"Paseo de Las Lilas No.92 Col. Bosques De Las Lomas Delegación Cuajimalpa Mexico, D.F. C.P. 05120","location":{"lat":19.3878882,"lng":-99.2477514}},{"name":"SuperStore 3881-SANTA FE","address":"Av. Tamaulipas No. 3000 Col. Santa Fe Delegación Cuajimalpa Mexico, D.F. C.P. 05340","location":{"lat":19.3544883,"lng":-99.2775894}},{"name":"SuperStore 3830-VIRREYES","address":"Aguilar y Seixas No. 123 Col. Molino Del Rey Delegación Miguel Hidalgo Mexico, D.F. C.P. 01140","location":{"lat":19.421461,"lng":-99.20660160000001}},{"name":"SuperStore 3921-VISTA HERMOSA","address":"Av. Noche de Paz No. 38 Col. Granjas Navidad  Delegación Cuajimalpa Mexico, D.F. C.P. 05219","location":{"lat":19.3729184,"lng":-99.2789203}},{"name":"SuperStore 5817-AXOMIATLA","address":"Calz. de Las Águilas No. 1819 Col. San Antonio Tarango Delg. Alvaro Obregón Mexico, D.F. C.P. 01780","location":{"lat":19.3425089,"lng":-99.24814429999999}},{"name":"SuperStore 3844-BOSQUES DE MINAS","address":"Bosque de Minas No. 33 Col. Bosques de La Herradura Huixquilucan, Edo. de Mexico C.P. 52783","location":{"lat":19.4225507,"lng":-99.2598527}},{"name":"SuperStore 3034-FUENTES DE LAS LOMAS","address":"Av. Jesús Del Monte No. 37, Entre Olmo y Prolongación Huixquilucan, Col. Jesús Del Monte, , Huixquilucan, Estado De México, C.P. 52764","location":{"lat":19.3753332,"lng":-99.2943966}},{"name":"KAYCHEE  175-Lomas Estrella","address":"Avenida Tláhuac 4409, Itzapalapa, Lomas Estrella, 09890 Ciudad de México, D.F., México","location":{"lat":19.3216502,"lng":-99.0942796}}]